{
  "position": [
    {
      "name": "정릉맥주도가",
      "address": "서울특별시 성북구 아리랑로19길 46-4 (정릉동) 1층",
      "latitude": "37.6026869",
      "longitude": "127.010623"
    },
    {
      "name": "(주)비어바나",
      "address": "서울특별시 영등포구 도림로129길 5-1",
      "latitude": "37.5133153",
      "longitude": "126.895309"
    },
    {
      "name": "서울크래프트비어 주식회사",
      "address": "서울특별시 마포구 토정로3안길 10",
      "latitude": "37.5458841",
      "longitude": "126.914613"
    },
    {
      "name": "브로이하우스바네하임",
      "address": "서울특별시 노원구 공릉동 240-19 고려빌딩1,2층(공릉로32길 54)",
      "latitude": "37.6216885",
      "longitude": "127.082044"
    },
    {
      "name": "울리브루잉 주식회사",
      "address": "서울특별시 종로구 창경궁로 240-7(명륜4가, 인설빌딩) 1층 울리브루잉",
      "latitude": "37.5823790",
      "longitude": "126.999016"
    },
    {
      "name": "에일크루브루잉(주)",
      "address": "서울특별시 마포구 모래내로 87(성산동) B동 1층, 2층 일부",
      "latitude": "37.5666324",
      "longitude": "126.912563"
    },
    {
      "name": "(주)더쎄를라잇브루잉(가산지점)",
      "address": "서울특별시 금천구 디지털로9길 56 105호, B108호",
      "latitude": "37.4804028",
      "longitude": "126.886774"
    },
    {
      "name": "미스터리 브루잉 컴퍼니",
      "address": "서울특별시 마포구 독막로 311 (염리동) 재화스퀘어 1층 101호",
      "latitude": "37.5439755",
      "longitude": "126.947509"
    },
    {
      "name": "주식회사 어메이징브루잉컴퍼니",
      "address": "서울특별시 성동구 성수일로4길 4 (성수동1가)",
      "latitude": "37.5428698",
      "longitude": "127.049382"
    },
    {
      "name": "주니비노 브루어리",
      "address": "서울특별시 마포구 양화진2길 31(합정동, 주니비노 호텔) 1층 및 B1층 일부",
      "latitude": "37.5479264",
      "longitude": "126.910729"
    },
    {
      "name": "(주)기센코리아에프앤비 아톤브루어리",
      "address": "서울특별시 용산구 장문로 23 (이태원동) 지1층 B104호",
      "latitude": "37.5289499",
      "longitude": "126.993271"
    },
    {
      "name": "자파 브루어리 (JAFA BREWERY)",
      "address": "서울특별시 성동구 성수이로14길 14 (성수동2가) 성수연방 B동 1층",
      "latitude": "37.5414970",
      "longitude": "127.056951"
    },
    {
      "name": "브루어리 304",
      "address": "서울특별시 서대문구 통일로11길 7 (천연동)",
      "latitude": "37.5691912",
      "longitude": "126.962591"
    },
    {
      "name": "군산맥주조합",
      "address": "전라북도 군산시 해망로 146-24(금암동) 1층 군산수제맥주체험관",
      "latitude": "35.9880520",
      "longitude": "126.721104"
    },
    {
      "name": "유한책임회사 농업회사법인 순천맥주 순천브루어리",
      "address": "전라남도 순천시 영동길 48",
      "latitude": "34.9570019",
      "longitude": "127.481595"
    },
    {
      "name": "주식회사 스퀴즈맥주 순창공장",
      "address": "전라북도 순창군 인계면 물통길 22-6 ,22-10",
      "latitude": "35.3830002",
      "longitude": "127.164236"
    },
    {
      "name": "파머스맥주 주식회사 농업회사법인",
      "address": "전라북도 고창군 부안면 복분자로 434-129",
      "latitude": "35.5032885",
      "longitude": "126.642469"
    },
    {
      "name": "농업회사법인 (주)구례양조 비어락하우스",
      "address": "전라남도 구례군 용방면 용산로 107-59 (주)쿱서비스 지원센터",
      "latitude": "35.2728077",
      "longitude": "127.413166"
    },
    {
      "name": "세븐브로이이즈 주식회사",
      "address": "전라북도 익산시 왕궁면 국가식품로4길 21(왕궁면) 세븐브로이이즈 주식회사",
      "latitude": "35.9793068",
      "longitude": "127.090896"
    },
    {
      "name": "노매딕 브루잉 컴퍼니",
      "address": "전라북도 전주시 완산구 전라감영3길 12-10",
      "latitude": "35.8163830",
      "longitude": "127.143882"
    },
    {
      "name": "초이리브루어리",
      "address": "전라북도 익산시 선화로63길 30-1 1층(영등동)",
      "latitude": "35.9490104",
      "longitude": "126.973807"
    },
    {
      "name": "여주맥주양조장",
      "address": "경기도 여주시 가남읍 신해1길 32(가남읍) 1층, 2층",
      "latitude": 37.2230263,
      "longitude": 127.546216
    },
    {
      "name": "브로이하우스",
      "address": "강원도 원주시 개운동 277-21(남원로 642)",
      "latitude": 37.3400993,
      "longitude": 127.953115
    },
    {
      "name": "히든트랙브루잉 탭룸",
      "address": "경기도 양주시 화합로 1754",
      "latitude": 37.8399059,
      "longitude": 127.100799
    },
    {
      "name": "펀더멘탈브루잉",
      "address": "경기도 수원시 영통구 매영로269번길 61 (원천동) 1층",
      "latitude": 37.2602214,
      "longitude": 127.067679
    },
    {
      "name": "화이트크로우 브루잉컴퍼니",
      "address": "강원도 평창군 방림면 고원로 65",
      "latitude": 37.4761399,
      "longitude": 128.252548
    },
    {
      "name": "제이에이치브루잉",
      "address": "경기도 하남시 미사강변서로 25(풍산동, 미사 테스타타워 지식산업센터) 미사테스타타워 R125호",
      "latitude": 37.552643,
      "longitude": 127.182248
    },
    {
      "name": "놀라운맥주",
      "address": "경기도 이천시 백사면 원적로801번길 347",
      "latitude": 37.3477268,
      "longitude": 127.484208
    },
    {
      "name": "제주맥주 양조장",
      "address": "제주특별자치도 제주시 한림읍 금능농공길 62-11 (외 1필지), 금능농공길 64",
      "latitude": 33.3585403,
      "longitude": 126.2413
    },
    {
      "name": "브루하우스더테이블 일산점",
      "address": "경기도 고양시 일산동구 풍동 123 지하 1층(백마로 504)",
      "latitude": 37.6626269,
      "longitude": 126.804179
    },
    {
      "name": "웨스트엔드브루잉",
      "address": "경기도 파주시 오도로 160-18(오도동) 1층",
      "latitude": 37.7528931,
      "longitude": 126.719165
    },
    {
      "name": "농업회사법인 독브루어리",
      "address": "경기도 김포시 하성면 누산봉성로237번길 163",
      "latitude": 37.6939387,
      "longitude": 126.64442
    },
    {
      "name": "어메이징 제2브루어리",
      "address": "경기도 이천시 백사면 원적로801번길 319(백사면) 어메이징 제2브루어리",
      "latitude": 37.3472844,
      "longitude": 127.484431
    },
    {
      "name": "가로수브루어리",
      "address": "경기도 김포시 대곶면 대명항로 526(대곶면) 1층",
      "latitude": 37.6463824,
      "longitude": 126.563303
    },
    {
      "name": "카브루 비전브루어리",
      "address": "경기도 가평군 상면 비룡로 2118(상면) (주)카브루 비전브루어리",
      "latitude": 37.7977278,
      "longitude": 127.337328
    },
    {
      "name": "비에이치브루어리",
      "address": "경기도 평택시 팽성읍 팽성북로 19(팽성읍) 1동 104호,105호",
      "latitude": 36.9735339,
      "longitude": 127.042217
    },
    {
      "name": "에잇피플브루어리",
      "address": "경기도 남양주시 화도읍 재재기로190번안길 3",
      "latitude": 37.6174555,
      "longitude": 127.303317
    },
    {
      "name": "매직트리브루어리",
      "address": "경기도 용인시 처인구 백령로 39 (유방동)",
      "latitude": 37.2628972,
      "longitude": 127.192308
    },
    {
      "name": "바네하임브루어리",
      "address": "경기도 남양주시 진접읍 내각1로73번길 65-1",
      "latitude": 37.7089661,
      "longitude": 127.161341
    },
    {
      "name": "크래머리 브루어리",
      "address": "경기도 가평군 상면 청군로 429 (덕현리 391-12)",
      "latitude": 3,
      "longitude": 5
    },
    {
      "name": "더홋브루어리",
      "address": "경기도 이천시 백사면 청백리로474번길 410-24 2동",
      "latitude": 37.3036356,
      "longitude": 127.500462
    },
    {
      "name": "다온숲브루어리",
      "address": "경기도 파주시 탄현면 엘지로 678",
      "latitude": 37.8330473,
      "longitude": 126.737012
    },
    {
      "name": "와이브루어리",
      "address": "경기도 포천시 소흘읍 응골길 18-26 , 18-29, 18-32",
      "latitude": 37.8135077,
      "longitude": 127.15205
    },
    {
      "name": "동두천브루어리",
      "address": "경기도 동두천시 중앙로 293 2층",
      "latitude": 37.9077049,
      "longitude": 127.054303
    },
    {
      "name": "강릉 브루어리",
      "address": "강원도 강릉시 율곡초교길11번길 9 1층",
      "latitude": 37.7675576,
      "longitude": 128.879676
    },
    {
      "name": "박앤코브루어리",
      "address": "경기도 군포시 공단로 181 (금정동) 4층, 101호 박앤코브루어리",
      "latitude": 37.3614501,
      "longitude": 126.949322
    },
    {
      "name": "아리랑브루어리",
      "address": "강원도 정선군 예미2길 26-55",
      "latitude": 37.2150283,
      "longitude": 128.651405
    },
    {
      "name": "카브루 상천브루어리",
      "address": "경기도 가평군 수리재길 18",
      "latitude": 3,
      "longitude": 5
    },
    {
      "name": "맥파이브루잉컴퍼니 양조장&탭룸",
      "address": "제주특별자치도 제주시 동회천1길 23 (회천동 1309)",
      "latitude": 37.7698893,
      "longitude": 127.445854
    },
    {
      "name": "굿맨브루어리",
      "address": "경기도 구리시 동구릉로389번길 46-4",
      "latitude": 37.6328522,
      "longitude": 127.139653
    },
    {
      "name": "플레이그라운드브루어리",
      "address": "경기도 고양시 일산서구 이산포길 246-11",
      "latitude": 37.667412,
      "longitude": 126.701921
    },
    {
      "name": "트레비어",
      "address": "울산광역시 울주군 언양읍 반구대로 1305-10",
      "latitude": 35.6052197,
      "longtitude": 129.14084
    },
    {
      "name": "화수 브루어리",
      "address": "울산 남구 신복로22번길 28 지하1층",
      "latitude": 35.5509517,
      "longtitude": 129.25915
    },
    {
      "name": "오시게브루어리",
      "address": "부산광역시 동래구 온천천로 11(1층 명륜동)",
      "latitude": 35.2170668,
      "longitude": 129.084581
    },
    {
      "name": "더랜치브루어리(The Ranch Brewery)",
      "address": "대전광역시 서구 계백로1249번안길 62(2동 1층 정림동, 1층일부)",
      "latitude": 36.3116407,
      "longitude": 127.358388
    },
    {
      "name": "프라하 크래프트 브루어리 유한회사",
      "address": "부산광역시 수영구 구락로123번길 20 (망미동) F1963, 프라하 993",
      "latitude": 35.1769288,
      "longitude": 129.115308
    },
    {
      "name": "플레이그라운드 브루어리 브루펍 송도",
      "address": "인천광역시 연수구 컨벤시아대로 80(401동 139,140호 송도동, 송도힐스테이트)",
      "latitude": 37.3957884,
      "longitude": 126.649125
    },
    {
      "name": "오브루어리(Oh Brewery)",
      "address": "충청남도 서산시 부석면 간월도2길 32 2동 1층",
      "latitude": 36.6059521,
      "longitude": 126.42083
    },
    {
      "name": "부산 프라이드 브루어리",
      "address": "부산광역시 기장군 동서길 84-2 만화리",
      "latitude": 35.2582511,
      "longitude": 129.199035
    },
    {
      "name": "엑스트라스몰 브루잉룸",
      "address": "인천광역시 연수구 청명로 19(청학동) 1층",
      "latitude": 37.4175686,
      "longitude": 126.67522
    },
    {
      "name": "와일드캣 브루잉",
      "address": "부산광역시 부산진구 신천대로62번길 2(부전동) KH마이우스 101호 와일드캣 브루잉",
      "latitude": 35.1508433,
      "longitude": 129.058632
    },
    {
      "name": "고릴라브루잉컴퍼니 정관지점",
      "address": "부산광역시 기장군 정관읍 산단7로 99-56(TSE정관공장 1층)",
      "latitude": 35.3204221,
      "longitude": 129.209237
    },
    {
      "name": "고릴라브루잉컴퍼니 해운대",
      "address": "부산광역시 해운대구 해운대로570번길 46(1층일부 우동)",
      "latitude": 35.159825,
      "longitude": 129.158746
    },
    {
      "name": "주식회사 더랜치브루잉",
      "address": "대전광역시 서구 계백로1249번안길 62 (정림동) 2동, 더랜치브루잉",
      "latitude": 36.3116407,
      "longitude": 127.358388
    },
    {
      "name": "주식회사 제우스브루잉컴퍼니",
      "address": "인천광역시 계양구 봉오대로894번길 48-7 (서운동) , 1층(일부)",
      "latitude": 37.5262004,
      "longitude": 126.747873
    },
    {
      "name": "주식회사 칼리가리브루잉",
      "address": "인천광역시 중구 신포로15번길 41 (해안동3가)",
      "latitude": 37.4715515,
      "longitude": 126.622114
    },
    {
      "name": "고릴라브루잉컴퍼니(2F)",
      "address": "부산광역시 수영구 광남로 125(2층 광안동)",
      "latitude": 35.1528161,
      "longitude": 129.116231
    },
    {
      "name": "칼리가리브루잉",
      "address": "인천광역시 남동구 미래로 17(1층 101호 구월동, 이노프라자텔)",
      "latitude": 37.4516397,
      "longitude": 126.704083
    },
    {
      "name": "갈매기브루잉주식회사",
      "address": "부산광역시 강서구 평강로171번길 260",
      "latitude": 35.2081475,
      "longitude": 128.944118
    },
    {
      "name": "XS BREWING ROOM(엑스트라스몰 브루잉룸)",
      "address": "인천광역시 연수구 청명로 19(청학동,지상1층)",
      "latitude": 37.4175686,
      "longitude": 126.67522
    },
    {
      "name": "갈매기브루잉해운대점",
      "address": "부산광역시 해운대구 해운대해변로265번길 9(우동, 지상2층)",
      "latitude": 35.1604027,
      "longitude": 129.160714
    },
    {
      "name": "갈매기브루잉 경성대점",
      "address": "부산광역시 남구 수영로334번길 13(2층 대연동)",
      "latitude": 35.1378758,
      "longitude": 129.102724
    },
    {
      "name": "테트라포드브루잉",
      "address": "부산광역시 부산진구 중앙대로680번가길 77(2층 부전동)",
      "latitude": 35.1569317,
      "longitude": 129.060958
    },
    {
      "name": "갈매기브루잉남포",
      "address": "부산광역시 중구 광복로 21-3(2층 부평동1가)",
      "latitude": 35.099568,
      "longitude": 129.027561
    },
    {
      "name": "봄베이브로이",
      "address": "부산광역시 남구 문현금융로 40 , A동306호 (문현동, 부산국제금융센터)",
      "latitude": 35.14682,
      "longitude": 129.065761
    },
    {
      "name": "툼브로이",
      "address": "부산광역시 해운대구 해운대로 1244 (송정동) (1층)",
      "latitude": 35.1958039,
      "longitude": 129.205947
    },
    {
      "name": "킹콩브로이(kingkongbrau)",
      "address": "부산광역시 해운대구 송정광어골로 28(블루커피코리아 5층 송정동)",
      "latitude": 35.1789428,
      "longitude": 129.197578
    },
    {
      "name": "브로이하우스",
      "address": "부산광역시 동래구 온천장로107번길 32(허심청 1층 온천동)",
      "latitude": 35.2211633,
      "longitude": 129.082698
    },
    {
      "name": "봄베이 브로이",
      "address": "인천광역시 연수구 센트럴로 160(지상2층 254,255호 송도동, 송도센트럴파크푸르지오판매시설동)",
      "latitude": 37.3925744,
      "longitude": 126.644013
    },
    {
      "name": "봄베이브로이",
      "address": "부산광역시 중구 광복로 75(2층 광복동2가)",
      "latitude": 35.0987338,
      "longitude": 129.033253
    },
    {
      "name": "봄베이브로이",
      "address": "부산광역시 부산진구 중앙대로680번길 45(지상2층 부전동)",
      "latitude": 35.153595,
      "longitude": 129.061631
    },
    {
      "name": "(주)허심청브로이",
      "address": "부산광역시 동래구 온천동 137 허심청內１층일부(부산광역시 동래구 금강공원로 20번길 23(온천동))",
      "latitude": 35.2211813,
      "longitude": 129.082698
    },
    {
      "name": "리치브로이",
      "address": "부산광역시 동래구 사직로 48(사직동)",
      "latitude": 35.1959257,
      "longitude": 129.060361
    },
    {
      "name": "봄베이 브로이",
      "address": "부산광역시 해운대구 구남로 30(우동)",
      "latitude": 35.1614444,
      "longitude": 129.160413
    },
    {
      "name": "봄베이브로이",
      "address": "부산광역시 남구 문현금융로 40(A동 306호 문현동, 부산국제금융센터)",
      "latitude": 35.14682,
      "longitude": 129.065761
    },
    {
      "name": "브로이인탭하우스",
      "address": "인천광역시 부평구 시장로20번길 23(2층 부평동)",
      "latitude": 37.4925182,
      "longitude": 126.726435
    },
    {
      "name": "(주)센텀브로이",
      "address": "부산광역시 해운대구 센텀3로 20(센텀호텔 207호 우동)",
      "latitude": 35.1678248,
      "longitude": 129.132927
    },
    {
      "name": "원 월드비어코리아",
      "address": "대전광역시 유성구 유성대로1689번길 48(전민동) 1층",
      "latitude": 36.4017966,
      "longitude": 127.397482
    },
    {
      "name": "주식회사 부산항맥주",
      "address": "부산광역시 서구 해돋이로 77",
      "latitude": 35.0858299,
      "longitude": 129.020796
    },
    {
      "name": "플래티넘 맥주 브루어리",
      "address": "충청남도 예산군 고덕면 상몽산단2길 40",
      "latitude": 36.7969031,
      "longitude": 126.699249
    },
    {
      "name": "플래티넘 크래프트 맥주 브루어리",
      "address": "충청북도 증평군 울어바위길 79-46",
      "latitude": 36.79801202029709,
      "longitude": 127.60509289013571
    },
    {
      "name": "오비맥주 청주 공장 브루어리",
      "address": "충청북도 청주시 서원구 현도면 현도공단로 151",
      "latitude": 36.50339561641616,
      "longitude": 127.41661261586157
    },
    {
      "name": "코리아크래프트비어 브루어리",
      "address": "충청북도 음성군 원남면 원남산단로97",
      "latitude": 36.8896728036825,
      "longitude": 127.68291751614179
    },
    {
      "name": "솔티브루잉컴퍼니",
      "address": "충청북도 제천시 풍양로 108(중앙로1가, 중앙시장상가)",
      "latitude": 37.136879993238395,
      "longitude": 128.2113793113448
    },
    {
      "name": "CHILLHOPS BREWING CO.(칠홉스브루잉코)",
      "address": "충청남도 서산시 동서1로 148-3 1층",
      "latitude": 36.766962450219076,
      "longitude": 126.45456839633007
    },
    {
      "name": "뱅크크릭브루잉",
      "address": "충청북도 제천시 세거리로13길 106",
      "latitude": 37.08016543609568,
      "longitude": 128.1379727323757
    },
    {
      "name": "사일로 브루어리",
      "address": "연동면 청연로 716(연동면)",
      "latitude": 36.56766544297719,
      "longitude": 127.3220390120372
    },
    {
      "name": "농업회사법인 주식회사 스마트브루어리",
      "address": "충청북도 청주시 상당구 미원면 어암1길 213-10",
      "latitude": 36.627173333939425,
      "longitude": 127.7452783423237
    },
    {
      "name": "농업회사법인 공주브루어리",
      "address": "충청남도 공주시 우성면 성곡길 123",
      "latitude": 36.48891985024327,
      "longitude": 127.07064985010024
    },
    {
      "name": "네오아티잔브루어리",
      "address": "충청북도 음성군 원남면 원남산단로 99",
      "latitude": 36.889679331144016,
      "longitude": 127.68334946999431
    },
    {
      "name": "금강브루어리",
      "address": "충청남도 공주시 우성면 성곡길125",
      "latitude": 36.488849841557716,
      "longitude": 127.07093437214814
    },
    {
      "name": "주식회사 안동브루잉컴퍼니",
      "address": "경상북도 안동시 풍산읍 괴정2길 98(풍산읍) 2호",
      "latitude": 36.6034211,
      "longitude": 128.534048
    },
    {
      "name": "다이노 브루잉",
      "address": "경상남도 창원시 진해구 중원로86번길 22-2(화천동, 화천포차타운) 1층 다이노 브루잉",
      "latitude": 35.1515182,
      "longitude": 128.662364
    },
    {
      "name": "주식회사 부산맥주",
      "address": "경상남도 양산시 어실로 485 (어곡동) 1층",
      "latitude": 35.3969874,
      "longitude": 129.005746
    },
    {
      "name": "통영맥주",
      "address": "경상남도 통영시 항북길 53 (정량동) 지하1층, 1층, 2층",
      "latitude": 34.8448554,
      "longitude": 128.429224
    },
    {
      "name": "대경맥주주식회사",
      "address": "대구광역시 달성군 금강로2길 12",
      "latitude": 35.7705412,
      "longitude": 128.425659
    },
    {
      "name": "켈슈브로이맥주",
      "address": "경상남도 양산시 지산로 31",
      "latitude": 35.4957036,
      "longitude": 129.079896
    },
    {
      "name": "주식회사 완벽한인생브루어리",
      "address": "경상남도 남해군 삼동면 독일로 30",
      "latitude": 34.7974313,
      "longitude": 128.043476
    },
    {
      "name": "산청브루어리",
      "address": "경상남도 산청군 단성면 목화로 910 산청브루어리",
      "latitude": 35.2922887,
      "longitude": 127.958824
    },
    {
      "name": "주식회사 가나다라브루어리",
      "address": "경상북도 문경시 문경대로 625-1 1층",
      "latitude": 36.6149237,
      "longitude": 128.156525
    }
  ]
}
